{"type": "FeatureCollection", "features": [{"type": "Feature", "geometry": {"type": "Point", "coordinates": [-77.0486437, 38.9097287]}, "properties": {"fclass": "bus_stop", "name": "P St NW at 22nd St NW"}}, {"type": "Feature", "geometry": {"type": "Point", "coordinates": [-77.0426613, 38.9222538]}, "properties": {"fclass": "bus_stop", "name": "18th St NW at Columbia Rd NW"}}, {"type": "Feature", "geometry": {"type": "Point", "coordinates": [-77.0431481, 38.9224313]}, "properties": {"fclass": "bus_stop", "name": "Columbia Rd NW at Biltmore St NW"}}, {"type": "Feature", "geometry": {"type": "Point", "coordinates": [-77.0457131, 38.9139113]}, "properties": {"fclass": "bus_stop", "name": "Connecticut Ave NW at S St NW"}}, {"type": "Feature", "geometry": {"type": "Point", "coordinates": [-77.0520644, 38.923611]}, "properties": {"fclass": "bus_stop", "name": "Calvert St NW at Connecticut Ave NW"}}, {"type": "Feature", "geometry": {"type": "Point", "coordinates": [-77.043896, 38.923156]}, "properties": {"fclass": "bus_stop", "name": "Calvert St NW at Lanier Pl NW"}}, {"type": "Feature", "geometry": {"type": "Point", "coordinates": [-77.040074, 38.9244568]}, "properties": {"fclass": "bus_stop", "name": "Columbia Rd NW at Ontario Rd NW"}}, {"type": "Feature", "geometry": {"type": "Point", "coordinates": [-77.0428291, 38.9231703]}, "properties": {"fclass": "bus_stop", "name": "Columbia Road NW and Adams Mill Road NW"}}, {"type": "Feature", "geometry": {"type": "Point", "coordinates": [-77.0372, 38.9285817]}, "properties": {"fclass": "bus_stop", "name": "Mt Pleasant St NW at Irving St NW"}}, {"type": "Feature", "geometry": {"type": "Point", "coordinates": [-77.0360662, 38.9267962]}, "properties": {"fclass": "bus_stop", "name": "Columbia Rd NW at 16th St NW"}}, {"type": "Feature", "geometry": {"type": "Point", "coordinates": [-77.0366046, 38.9210995]}, "properties": {"fclass": "bus_stop", "name": "16th St & Crescent Pl"}}, {"type": "Feature", "geometry": {"type": "Point", "coordinates": [-77.0363993, 38.9208541]}, "properties": {"fclass": "bus_stop", "name": "16th St & Crescent Pl"}}, {"type": "Feature", "geometry": {"type": "Point", "coordinates": [-77.0363863, 38.9230858]}, "properties": {"fclass": "bus_stop", "name": "16th St NW at Euclid St NW"}}, {"type": "Feature", "geometry": {"type": "Point", "coordinates": [-77.0365993, 38.9235498]}, "properties": {"fclass": "bus_stop", "name": "16th St NW at Euclid St NW"}}, {"type": "Feature", "geometry": {"type": "Point", "coordinates": [-77.0363869, 38.9285615]}, "properties": {"fclass": "bus_stop", "name": "16th St NW at Irving St NW"}}, {"type": "Feature", "geometry": {"type": "Point", "coordinates": [-77.0365892, 38.9279368]}, "properties": {"fclass": "bus_stop", "name": "16th St NW at Irving St NW"}}, {"type": "Feature", "geometry": {"type": "Point", "coordinates": [-77.0367219, 38.928655]}, "properties": {"fclass": "bus_stop", "name": "Irving St NW at 16th St NW"}}, {"type": "Feature", "geometry": {"type": "Point", "coordinates": [-77.0365833, 38.9256608]}, "properties": {"fclass": "bus_stop", "name": "16th St NW at Harvard St NW"}}, {"type": "Feature", "geometry": {"type": "Point", "coordinates": [-77.0363767, 38.9257942]}, "properties": {"fclass": "bus_stop", "name": "16th St NW at Harvard St NW"}}, {"type": "Feature", "geometry": {"type": "Point", "coordinates": [-77.0372706, 38.9267166]}, "properties": {"fclass": "bus_stop", "name": "Harvard St NW at Argonne Pl NW"}}, {"type": "Feature", "geometry": {"type": "Point", "coordinates": [-77.0379715, 38.930031]}, "properties": {"fclass": "bus_stop", "name": "Mt Pleasant St NW & Kenyon St NW"}}, {"type": "Feature", "geometry": {"type": "Point", "coordinates": [-77.0361517, 38.9170968]}, "properties": {"fclass": "bus_stop", "name": "U St NW at New Hampshire Ave NW"}}, {"type": "Feature", "geometry": {"type": "Point", "coordinates": [-77.0407322, 38.9170923]}, "properties": {"fclass": "bus_stop", "name": "U St NW at Florida Ave NW"}}, {"type": "Feature", "geometry": {"type": "Point", "coordinates": [-77.0516518, 38.9239911]}, "properties": {"fclass": "bus_stop", "name": "Connecticut Ave NW at Calvert St NW"}}, {"type": "Feature", "geometry": {"type": "Point", "coordinates": [-77.0442589, 38.9197926]}, "properties": {"fclass": "bus_stop", "name": "Columbia Rd NW at Kalorama Rd NW"}}, {"type": "Feature", "geometry": {"type": "Point", "coordinates": [-77.0447254, 38.9193198]}, "properties": {"fclass": "bus_stop", "name": "Columbia Rd NW at 19th St NW"}}, {"type": "Feature", "geometry": {"type": "Point", "coordinates": [-77.0363563, 38.9168753]}, "properties": {"fclass": "bus_stop", "name": "16th St NW at U St NW"}}, {"type": "Feature", "geometry": {"type": "Point", "coordinates": [-77.0368916, 38.9168863]}, "properties": {"fclass": "bus_stop", "name": "U St NW at New Hampshire Ave NW"}}, {"type": "Feature", "geometry": {"type": "Point", "coordinates": [-77.0366147, 38.9165622]}, "properties": {"fclass": "bus_stop", "name": "16th St NW at U St NW"}}, {"type": "Feature", "geometry": {"type": "Point", "coordinates": [-77.051026, 38.923437]}, "properties": {"fclass": "bus_stop", "name": "Calvert St NW at Connecticut Ave NW"}}, {"type": "Feature", "geometry": {"type": "Point", "coordinates": [-77.0440313, 38.9294478]}, "properties": {"fclass": "bus_stop", "name": "Adams Mill Rd NW at Irving St NW"}}, {"type": "Feature", "geometry": {"type": "Point", "coordinates": [-77.0375333, 38.9289298]}, "properties": {"fclass": "bus_stop", "name": "Mt Pleasant St NW at Irving St NW"}}, {"type": "Feature", "geometry": {"type": "Point", "coordinates": [-77.0549763, 38.9154308]}, "properties": {"fclass": "bus_stop", "name": "Massachusetts Ave NW at California St NW"}}, {"type": "Feature", "geometry": {"type": "Point", "coordinates": [-77.0571803, 38.9170438]}, "properties": {"fclass": "bus_stop", "name": "Massachusetts Ave NW at Belmont Rd NW"}}, {"type": "Feature", "geometry": {"type": "Point", "coordinates": [-77.0599693, 38.9190418]}, "properties": {"fclass": "bus_stop", "name": "Massachusetts Ave NW at 30th St NW"}}, {"type": "Feature", "geometry": {"type": "Point", "coordinates": [-77.0516463, 38.9127778]}, "properties": {"fclass": "bus_stop", "name": "Massachusetts Ave NW at Sheridan Cir NW"}}, {"type": "Feature", "geometry": {"type": "Point", "coordinates": [-77.0504413, 38.9112048]}, "properties": {"fclass": "bus_stop", "name": "Q St NW at 23rd St NW"}}, {"type": "Feature", "geometry": {"type": "Point", "coordinates": [-77.0551813, 38.9105208]}, "properties": {"fclass": "bus_stop", "name": "Q St NW at 27th St NW"}}, {"type": "Feature", "geometry": {"type": "Point", "coordinates": [-77.0508213, 38.9125638]}, "properties": {"fclass": "bus_stop", "name": "Sheridan Cir NW at Massachusetts Ave NW"}}, {"type": "Feature", "geometry": {"type": "Point", "coordinates": [-77.0514753, 38.9231578]}, "properties": {"fclass": "bus_stop", "name": "Connecticut Ave NW at Calvert St NW"}}, {"type": "Feature", "geometry": {"type": "Point", "coordinates": [-77.0542813, 38.9146998]}, "properties": {"fclass": "bus_stop", "name": "Massachusetts Ave NW"}}, {"type": "Feature", "geometry": {"type": "Point", "coordinates": [-77.0533423, 38.9140148]}, "properties": {"fclass": "bus_stop", "name": "Massachusetts Ave NW at S St NW"}}, {"type": "Feature", "geometry": {"type": "Point", "coordinates": [-77.0570063, 38.9106058]}, "properties": {"fclass": "bus_stop", "name": "Q St NW at 28th St NW"}}, {"type": "Feature", "geometry": {"type": "Point", "coordinates": [-77.0530073, 38.9139898]}, "properties": {"fclass": "bus_stop", "name": "Massachusetts Ave NW at S St NW"}}, {"type": "Feature", "geometry": {"type": "Point", "coordinates": [-77.0566233, 38.9164328]}, "properties": {"fclass": "bus_stop", "name": "Massachusetts Ave NW at Belmont Rd NW"}}, {"type": "Feature", "geometry": {"type": "Point", "coordinates": [-77.0418882, 38.9287737]}, "properties": {"fclass": "bus_stop", "name": "Irving St NW at Hobart St NW"}}, {"type": "Feature", "geometry": {"type": "Point", "coordinates": [-77.0439223, 38.9294178]}, "properties": {"fclass": "bus_stop", "name": "Irving St NW at Adams Mill Rd NW"}}, {"type": "Feature", "geometry": {"type": "Point", "coordinates": [-77.0597763, 38.9187408]}, "properties": {"fclass": "bus_stop", "name": "Massachusetts Ave NW at 30th St NW"}}, {"type": "Feature", "geometry": {"type": "Point", "coordinates": [-77.0547853, 38.9106488]}, "properties": {"fclass": "bus_stop", "name": "Q St NW at 27th St NW"}}, {"type": "Feature", "geometry": {"type": "Point", "coordinates": [-77.0532713, 38.9106668]}, "properties": {"fclass": "bus_stop", "name": "2501 Q St NW"}}, {"type": "Feature", "geometry": {"type": "Point", "coordinates": [-77.0527513, 38.9105678]}, "properties": {"fclass": "bus_stop", "name": "2500 Q St NW"}}, {"type": "Feature", "geometry": {"type": "Point", "coordinates": [-77.0428603, 38.9278898]}, "properties": {"fclass": "bus_stop", "name": "Harvard St NW at Adams Mill Rd"}}, {"type": "Feature", "geometry": {"type": "Point", "coordinates": [-77.0483293, 38.9112658]}, "properties": {"fclass": "bus_stop", "name": "Massachusetts Ave NW at 22nd St NW"}}, {"type": "Feature", "geometry": {"type": "Point", "coordinates": [-77.0470753, 38.9233468]}, "properties": {"fclass": "bus_stop", "name": "Calvert St NW at Biltmore St NW"}}, {"type": "Feature", "geometry": {"type": "Point", "coordinates": [-77.0467963, 38.9095918]}, "properties": {"fclass": "bus_stop", "name": "P St NW at 21st St NW"}}, {"type": "Feature", "geometry": {"type": "Point", "coordinates": [-77.0464573, 38.9153248]}, "properties": {"fclass": "bus_stop", "name": "Connecticut Ave NW at Leroy Pl NW"}}, {"type": "Feature", "geometry": {"type": "Point", "coordinates": [-77.0380093, 38.9255348]}, "properties": {"fclass": "bus_stop", "name": "Columbia Rd NW at Mozart Pl NW"}}, {"type": "Feature", "geometry": {"type": "Point", "coordinates": [-77.0420403, 38.9204158]}, "properties": {"fclass": "bus_stop", "name": "18th St NW at Belmont Rd NW"}}, {"type": "Feature", "geometry": {"type": "Point", "coordinates": [-77.0418513, 38.9205458]}, "properties": {"fclass": "bus_stop", "name": "18th St NW at Belmont Rd NW"}}, {"type": "Feature", "geometry": {"type": "Point", "coordinates": [-77.0469483, 38.9134828]}, "properties": {"fclass": "bus_stop", "name": "Florida Ave NW at Phelps Pl NW"}}, {"type": "Feature", "geometry": {"type": "Point", "coordinates": [-77.0417683, 38.9179788]}, "properties": {"fclass": "bus_stop", "name": "18th St NW at California St NW"}}, {"type": "Feature", "geometry": {"type": "Point", "coordinates": [-77.0467603, 38.9171328]}, "properties": {"fclass": "bus_stop", "name": "Connecticut Ave NW at California St NW"}}, {"type": "Feature", "geometry": {"type": "Point", "coordinates": [-77.0460923, 38.9170942]}, "properties": {"fclass": "bus_stop", "name": "Columbia Rd NW at California St NW"}}, {"type": "Feature", "geometry": {"type": "Point", "coordinates": [-77.0460763, 38.9150568]}, "properties": {"fclass": "bus_stop", "name": "Connecticut Ave NW at Florida Ave NW"}}, {"type": "Feature", "geometry": {"type": "Point", "coordinates": [-77.0415433, 38.9181288]}, "properties": {"fclass": "bus_stop", "name": "18th St NW at California St NW"}}, {"type": "Feature", "geometry": {"type": "Point", "coordinates": [-77.0471043, 38.9172568]}, "properties": {"fclass": "bus_stop", "name": "Connecticut Ave NW at Wyoming Ave NW"}}, {"type": "Feature", "geometry": {"type": "Point", "coordinates": [-77.0482883, 38.9186568]}, "properties": {"fclass": "bus_stop", "name": "Connecticut Ave NW at Kalorama Rd NW"}}, {"type": "Feature", "geometry": {"type": "Point", "coordinates": [-77.0459437, 38.9171285]}, "properties": {"fclass": "bus_stop", "name": "Columbia Rd NW at California St NW"}}, {"type": "Feature", "geometry": {"type": "Point", "coordinates": [-77.0475743, 38.9185508]}, "properties": {"fclass": "bus_stop", "name": "Connecticut Ave NW at Kalorama Rd NW"}}, {"type": "Feature", "geometry": {"type": "Point", "coordinates": [-77.0366931, 38.9267587]}, "properties": {"fclass": "bus_stop", "name": "Mt Pleasant St NW at Harvard St NW"}}, {"type": "Feature", "geometry": {"type": "Point", "coordinates": [-77.0472873, 38.9233948]}, "properties": {"fclass": "bus_stop", "name": "Calvert St Loop at Calvert St NW"}}, {"type": "Feature", "geometry": {"type": "Point", "coordinates": [-77.0490073, 38.9110928]}, "properties": {"fclass": "bus_stop", "name": "Q St NW at 22nd St NW"}}, {"type": "Feature", "geometry": {"type": "Point", "coordinates": [-77.0455043, 38.9128698]}, "properties": {"fclass": "bus_stop", "name": "Connecticut Ave NW at R St NW"}}, {"type": "Feature", "geometry": {"type": "Point", "coordinates": [-77.0475883, 38.9232208]}, "properties": {"fclass": "bus_stop", "name": "Calvert St NW at Biltmore St NW"}}, {"type": "Feature", "geometry": {"type": "Point", "coordinates": [-77.0483613, 38.9114678]}, "properties": {"fclass": "bus_stop", "name": "Massachusetts Ave NW at Florida Ave NW"}}, {"type": "Feature", "geometry": {"type": "Point", "coordinates": [-77.0366242, 38.9204927]}, "properties": {"fclass": "bus_stop", "name": "16th St NW at Belmont St NW"}}, {"type": "Feature", "geometry": {"type": "Point", "coordinates": [-77.0429815, 38.9224024]}, "properties": {"fclass": "bus_stop", "name": "Columbia Rd NW at 18th St NW"}}, {"type": "Feature", "geometry": {"type": "Point", "coordinates": [-77.0393221, 38.924808]}, "properties": {"fclass": "bus_stop", "name": "Columbia Rd NW at 17th St NW"}}]}